[{
  "location": "Place 1",
  "address": "1st street",
  "city": {
    "name": "Sunnyvale",
    "zip": "94089"
  }
}, {
  "location": "Place 1",
  "address": "1st street",
  "city": {
    "name": "Sunnyvale",
    "zip": "94089"
  }
}, {
  "location": "Place 1",
  "address": "1st street",
  "city": {
    "name": "Sunnyvale",
    "zip": "94089"
  }
}, {
  "location": "Place 1",
  "address": "1st street",
  "city": {
    "name": "Sunnyvale",
    "zip": "94089"
  }
}, {
  "location": "Place 1",
  "address": "1st street",
  "city": {
    "name": "Sunnyvale",
    "zip": "94089"
  }
}, {
  "location": "Place 1",
  "address": "1st street",
  "city": {
    "name": "Sunnyvale",
    "zip": "94089"
  }
}, {
  "location": "Place 1",
  "address": "1st street",
  "city": {
    "name": "Sunnyvale",
    "zip": "94089"
  }
}, {
  "location": "Place 1",
  "address": "1st street",
  "city": {
    "name": "Sunnyvale",
    "zip": "94089"
  }
}, {
  "location": "Place 1",
  "address": "1st street",
  "city": {
    "name": "Sunnyvale",
    "zip": "94089"
  }
}, {
  "location": "Place 1",
  "address": "1st street",
  "city": {
    "name": "Sunnyvale",
    "zip": "94089"
  }
}, {
  "location": "Place 1",
  "address": "1st street",
  "city": {
    "name": "Sunnyvale",
    "zip": "94089"
  }
}, {
  "location": "Place 1",
  "address": "1st street",
  "city": {
    "name": "Sunnyvale",
    "zip": "94089"
  }
}, {
  "location": "Place 1",
  "address": "1st street",
  "city": {
    "name": "Sunnyvale",
    "zip": "94089"
  }
}, {
  "location": "Place 1",
  "address": "1st street",
  "city": {
    "name": "Sunnyvale",
    "zip": "94089"
  }
}, {
  "location": "Place 1",
  "address": "1st street",
  "city": {
    "name": "Sunnyvale",
    "zip": "94089"
  }
}, {
  "location": "Place 1",
  "address": "1st street",
  "city": {
    "name": "Sunnyvale",
    "zip": "94089"
  }
}, {
  "location": "Place 1",
  "address": "1st street",
  "city": {
    "name": "Sunnyvale",
    "zip": "94089"
  }
}, {
  "location": "Place 1",
  "address": "1st street",
  "city": {
    "name": "Sunnyvale",
    "zip": "94089"
  }
}, {
  "location": "Place 1",
  "address": "1st street",
  "city": {
    "name": "Sunnyvale",
    "zip": "94089"
  }
}, {
  "location": "Place 1",
  "address": "1st street",
  "city": {
    "name": "Sunnyvale",
    "zip": "94089"
  }
}, {
  "location": "Place 1",
  "address": "1st street",
  "city": {
    "name": "Sunnyvale",
    "zip": "94089"
  }
}, {
  "location": "Place 1",
  "address": "1st street",
  "city": {
    "name": "Sunnyvale",
    "zip": "94089"
  }
}, {
  "location": "Place 1",
  "address": "1st street",
  "city": {
    "name": "Sunnyvale",
    "zip": "94089"
  }
}, {
  "location": "Place 1",
  "address": "1st street",
  "city": {
    "name": "Sunnyvale",
    "zip": "94089"
  }
}, {
  "location": "Place 1",
  "address": "1st street",
  "city": {
    "name": "Sunnyvale",
    "zip": "94089"
  }
}, {
  "location": "Place 1",
  "address": "1st street",
  "city": {
    "name": "Sunnyvale",
    "zip": "94089"
  }
}, {
  "location": "Place 1",
  "address": "1st street",
  "city": {
    "name": "Sunnyvale",
    "zip": "94089"
  }
}, {
  "location": "Place 1",
  "address": "1st street",
  "city": {
    "name": "Sunnyvale",
    "zip": "94089"
  }
}, {
  "location": "Place 1",
  "address": "1st street",
  "city": {
    "name": "Sunnyvale",
    "zip": "94089"
  }
}, {
  "location": "Place 1",
  "address": "1st street",
  "city": {
    "name": "Sunnyvale",
    "zip": "94089"
  }
}, {
  "location": "Place 1",
  "address": "1st street",
  "city": {
    "name": "Sunnyvale",
    "zip": "94089"
  }
}, {
  "location": "Place 1",
  "address": "1st street",
  "city": {
    "name": "Sunnyvale",
    "zip": "94089"
  }
}, {
  "location": "Place 1",
  "address": "1st street",
  "city": {
    "name": "Sunnyvale",
    "zip": "94089"
  }
}, {
  "location": "Place 1",
  "address": "1st street",
  "city": {
    "name": "Sunnyvale",
    "zip": "94089"
  }
}, {
  "location": "Place 1",
  "address": "1st street",
  "city": {
    "name": "Sunnyvale",
    "zip": "94089"
  }
}, {
  "location": "Place 1",
  "address": "1st street",
  "city": {
    "name": "Sunnyvale",
    "zip": "94089"
  }
}, {
  "location": "Place 1",
  "address": "1st street",
  "city": {
    "name": "Sunnyvale",
    "zip": "94089"
  }
}, {
  "location": "Place 1",
  "address": "1st street",
  "city": {
    "name": "Sunnyvale",
    "zip": "94089"
  }
}]